{"type":"FeatureCollection","features":[{"type":"Feature","geometry":{"type":"Point","coordinates":[-67.500571,-45.8558361,0]},"properties":{"name":"Defensa Civil Comodoro Rivadavia"}},{"type":"Feature","geometry":{"type":"Point","coordinates":[-67.5409412,-45.8556761,0]},"properties":{"name":"Gimnasio Municipal 3","description":"Para Evacuados - El 1 y 2 de Abril también funcionará Atención Médica de 08:00 a 02:00 de la mañana."}},{"type":"Feature","geometry":{"type":"Point","coordinates":[-67.5325533,-45.8771048,0]},"properties":{"name":"Gimnasio Municipal N 2 Comodoro Rivadavia","description":"Para Evacuados-  El 1 y 2 de Abril también funcionará Atención Médica de 08:00 a 02:00 de la mañana. "}},{"type":"Feature","geometry":{"type":"Point","coordinates":[-67.5453025,-45.8620372,0]},"properties":{"name":"San Cayetano Esc Provincial Nro209","description":"Para Evacuados. Actualización 31/03/17 12:15hrs. Los evacuados del Centro de Veteranos se trasladan al gimnasio de la Escuela 209."}},{"type":"Feature","geometry":{"type":"Point","coordinates":[-67.5074985,-45.8720212,0]},"properties":{"name":"Gimnasio Gatti","description":"Para Evacuados"}},{"type":"Feature","geometry":{"type":"Point","coordinates":[-67.5378692,-45.8662938,0]},"properties":{"name":"Centro de veteranos de Guerra","description":"Para Evacuados. Actualización: 31/03/2017. 12:15 hrs. Los evacuados del Centro de Veteranos se trasladan al gimnasio de la Escuela 209."}},{"type":"Feature","geometry":{"type":"Point","coordinates":[-67.4850708,-45.8622606,0]},"properties":{"name":"Centro -Catedral de San Juan Bosco","description":"Evacuados"}},{"type":"Feature","geometry":{"type":"Point","coordinates":[-67.5260724,-45.8760604,0]},"properties":{"name":"Residencia Juvenil María Inmaculada","description":"Para Evacuados"}},{"type":"Feature","geometry":{"type":"Point","coordinates":[-67.5321851,-45.8579897,0]},"properties":{"name":"Biblioteca Popular Hugo Dario Fernandez Del Barrio San Martin","description":"Para Evacuados"}},{"type":"Feature","geometry":{"type":"Point","coordinates":[-67.498858,-45.8710514,0]},"properties":{"name":"Cobra seguridad","description":"Para Evacuados"}},{"type":"Feature","geometry":{"type":"Point","coordinates":[-67.5057736,-45.8647732,0]},"properties":{"name":"Centro Asturiano","description":"Para Evacuados"}},{"type":"Feature","geometry":{"type":"Point","coordinates":[-67.4323073,-45.7896032,0]},"properties":{"name":"Asociación Vecinal Standart","description":"Para Evacuados"}},{"type":"Feature","geometry":{"type":"Point","coordinates":[-67.4568967,-45.817095,0]},"properties":{"name":"Asociacion Vecinal Presidente Ortiz Km 5","description":"Para Evacuados"}},{"type":"Feature","geometry":{"type":"Point","coordinates":[-67.4562253,-45.8141441,0]},"properties":{"name":"Centro de Salud Presidente Ortiz","description":"Para evacuados- El 1 y 2 de Abril también funcionará Atención Médica de 08:00 a 00:00."}},{"type":"Feature","geometry":{"type":"Point","coordinates":[-67.5389975,-45.8294823,0]},"properties":{"name":"Vecinal Barrio Laprida","description":"Para evacuados"}},{"type":"Feature","geometry":{"type":"Point","coordinates":[-67.4347083,-45.7750884,0]},"properties":{"name":"Regimiento De Infanteria Mecanizado 8","description":"Para Evacuados"}},{"type":"Feature","geometry":{"type":"Point","coordinates":[-67.4089314,-45.7927328,0]},"properties":{"name":"Restinga Ali- escuela 203 Prof. Manuel Estrada","description":"Para Evacuados"}},{"type":"Feature","geometry":{"type":"Point","coordinates":[-67.4233073,-45.7905123,0]},"properties":{"name":"Don Bosco- Escuela 707","description":"Para evacuados"}},{"type":"Feature","geometry":{"type":"Point","coordinates":[-67.66933,-45.778823,0]},"properties":{"name":"Hospital Rural Diadema","description":"Para evacuados"}},{"type":"Feature","geometry":{"type":"Point","coordinates":[-67.4346951,-45.7910006,0]},"properties":{"name":"Standart norte - Escuela 171","description":"Para Evacuados"}},{"type":"Feature","geometry":{"type":"Point","coordinates":[-67.4250054,-45.7913773,0]},"properties":{"name":"Don Bosco -Iglesia de Dios","description":"Para Evacuados"}},{"type":"Feature","geometry":{"type":"Point","coordinates":[-67.4211752,-45.7968156,0]},"properties":{"name":"Vecinal Don Bosco","description":"Para Evacuados. Gaucho Rivero y Larreguey"}},{"type":"Feature","geometry":{"type":"Point","coordinates":[-67.4638545,-45.7947013,0]},"properties":{"name":"Prospero Palazzo -Escuela 722","description":"Para evacuados"}},{"type":"Feature","geometry":{"type":"Point","coordinates":[-67.4166867,-45.7954248,0]},"properties":{"name":"Don Bosco - Gimnasio Cemento","description":"Para Evacuados"}},{"type":"Feature","geometry":{"type":"Point","coordinates":[-67.5005471,-45.7690946,0]},"properties":{"name":"Iglesia Km14","description":"Doctor Fasola y Colonos Serbios"}},{"type":"Feature","geometry":{"type":"Point","coordinates":[-67.5450641,-45.8288088,0]},"properties":{"name":"Laprida- Escuela Nro. 27","description":"Se reciben donaciones"}},{"type":"Feature","geometry":{"type":"Point","coordinates":[-67.5417221,-45.8849639,0]},"properties":{"name":"barrio abel amaya"}},{"type":"Feature","geometry":{"type":"Point","coordinates":[-67.5108231,-45.8589379,0]},"properties":{"name":"Comedor Mirella Angulo","description":"Se reciben Donaciones"}},{"type":"Feature","geometry":{"type":"Point","coordinates":[-67.4763696,-45.863325,0]},"properties":{"name":"Centro Cultural Comodoro Rivadavia","description":"Se reciben Donaciones"}},{"type":"Feature","geometry":{"type":"Point","coordinates":[-67.4974328,-45.8583797,0]},"properties":{"name":"Escuela 731 Gran Malvina","description":"Se reciben donaciones"}},{"type":"Feature","geometry":{"type":"Point","coordinates":[-67.499939,-45.870167,0]},"properties":{"name":"Gimnasio Municipal N 1","description":"Se reciben Donaciones"}},{"type":"Feature","geometry":{"type":"Point","coordinates":[-67.482414,-45.837928,0]},"properties":{"name":"Bomberos Voluntarios Destacamento 3","description":"Se reciben Donaciones"}},{"type":"Feature","geometry":{"type":"Point","coordinates":[-67.3795494,-45.7473517,0]},"properties":{"name":"Club Caleta Cordova","description":"Se reciben Donaciones"}},{"type":"Feature","geometry":{"type":"Point","coordinates":[-67.4796045,-45.833778,0]},"properties":{"name":"INEF","description":"Se reciben Donaciones"}},{"type":"Feature","geometry":{"type":"Point","coordinates":[-67.4991041,-45.8585715,0]},"properties":{"name":"Patio Abierto","description":"Se reciben Donaciones"}},{"type":"Feature","geometry":{"type":"Point","coordinates":[-67.4729576,-45.7950973,0]},"properties":{"name":"Vecinal De Prospero Palazzo","description":"Se reciben Donaciones"}},{"type":"Feature","geometry":{"type":"Point","coordinates":[-67.463908,-45.824737,0]},"properties":{"name":"Universidad Nacional de la Patagonia San Juan Bosco","description":"Se reciben Donaciones"}},{"type":"Feature","geometry":{"type":"Point","coordinates":[-67.4868304,-45.8597932,0]},"properties":{"name":"Colegio María Auxiliadora","description":"Se reciben Donaciones"}},{"type":"Feature","geometry":{"type":"Point","coordinates":[-67.5407141,-45.8667175,0]},"properties":{"name":"Tabernáculo de la Fe","description":"Se reciben Donaciones"}},{"type":"Feature","geometry":{"type":"Point","coordinates":[-67.4902448,-45.8600547,0]},"properties":{"name":"Consejo de localidad PJ","description":"Se reciben Donaciones"}},{"type":"Feature","geometry":{"type":"Point","coordinates":[-67.5118269,-45.8722353,0]},"properties":{"name":"Escuela Provincial N°13","description":"Recibe Donaciones"}},{"type":"Feature","geometry":{"type":"Point","coordinates":[-67.4639092,-45.807794,0]},"properties":{"name":"Escuela Provincial Nº 742 \"Ciudad del Petroleo\"","description":"Se reciben Donaciones"}},{"type":"Feature","geometry":{"type":"Point","coordinates":[-67.4995279,-45.8545515,0]},"properties":{"name":"Los Grillitos","description":"Centros de Atención Primaria de la Salud que funcionarán durante la jornada del día sábado 1º de abril, a partir de las 09:00 horas"}},{"type":"Feature","geometry":{"type":"Point","coordinates":[-67.5126838,-45.8722186,0]},"properties":{"name":"Centro de Salud de barrio José Fuchs","description":"La Municipalidad de Comodoro Rivadavia informa a la comunidad, los Centros de Atención Primaria de la Salud que funcionarán durante la jornada del día sábado 1º de abril, a partir de las 09:00 horas"}},{"type":"Feature","geometry":{"type":"Point","coordinates":[-67.5317743,-45.8663388,0]},"properties":{"name":"Centro de Salud de barrio Quirno Costa","description":"La Municipalidad de Comodoro Rivadavia informa a la comunidad, los Centros de Atención Primaria de la Salud que funcionarán durante la jornada del día sábado 1º de abril, a partir de las 09:00 horas."}},{"type":"Feature","geometry":{"type":"Point","coordinates":[-67.4361366,-45.7904608,0]},"properties":{"name":"Centro de Salud de barrio Standard","description":"El 1 y 2 de Abril  funcionará Atención Médica de 08:00 a 22:00 ."}},{"type":"Feature","geometry":{"type":"Point","coordinates":[-67.4622913,-45.7950845,0]},"properties":{"name":"Centro de Salud de barrio Próspero Palazzo","description":"La Municipalidad de Comodoro Rivadavia informa a la comunidad, los Centros de Atención Primaria de la Salud que funcionarán durante la jornada del día sábado 1º de abril, a partir de las 09:00 horas."}},{"type":"Feature","geometry":{"type":"Point","coordinates":[-67.5429638,-45.8283836,0]},"properties":{"name":"Centro de Salud de barrio Laprida","description":"La Municipalidad de Comodoro Rivadavia informa a la comunidad, los Centros de Atención Primaria de la Salud que funcionarán durante la jornada del día sábado 1º de abril, a partir de las 09:00 horas."}}]}